<?xml version='1.0' encoding='utf-8'?><kml xmlns='http://earth.google.com/kml/2.2'><Folder><name>Shapefile Converter Generated File</name><open>1</open>
<Placemark><name>start location shedung</name><styleUrl>#downArrowIcon</styleUrl><Point><coordinates>73.17012,18.95437,0 </coordinates></Point></Placemark><Placemark><name>descending road</name><styleUrl>#downArrowIcon</styleUrl><Point><coordinates>73.1699,18.95462,0 </coordinates></Point></Placemark><Placemark><name>crane yard left</name><styleUrl>#downArrowIcon</styleUrl><Point><coordinates>73.16867,18.95647,0 </coordinates></Point></Placemark><Placemark><name>hanuman temple right</name><styleUrl>#downArrowIcon</styleUrl><Point><coordinates>73.1684,18.95687,0 </coordinates></Point></Placemark><Placemark><name>road road cut in median</name><styleUrl>#downArrowIcon</styleUrl><Point><coordinates>73.16453,18.96192,0 </coordinates></Point></Placemark><Placemark><name>ekvira dhaba left</name><styleUrl>#downArrowIcon</styleUrl><Point><coordinates>73.16373,18.96295,0 </coordinates></Point></Placemark><Placemark><name>speed braker road</name><styleUrl>#downArrowIcon</styleUrl><Point><coordinates>73.16338,18.9634,0 </coordinates></Point></Placemark><Placemark><name>village tjunction right</name><styleUrl>#downArrowIcon</styleUrl><Point><coordinates>73.16312,18.96373,0 </coordinates></Point></Placemark><Placemark><name>shedung bypass Toll Plaza</name><styleUrl>#downArrowIcon</styleUrl><Point><coordinates>73.16178,18.96542,0 </coordinates></Point></Placemark><Placemark><name>shediung Toll Plaza</name><styleUrl>#downArrowIcon</styleUrl><Point><coordinates>73.16138,18.96587,0 </coordinates></Point></Placemark><Placemark><name>left underpass turn</name><styleUrl>#downArrowIcon</styleUrl><Point><coordinates>73.16125,18.96597,0 </coordinates></Point></Placemark><Placemark><name>pune mum start road</name><styleUrl>#downArrowIcon</styleUrl><Point><coordinates>73.15862,18.96873,0 </coordinates></Point></Placemark><Placemark><name>Bridge Bridge</name><styleUrl>#downArrowIcon</styleUrl><Point><coordinates>73.15825,18.96932,0 </coordinates></Point></Placemark><Placemark><name>3 lane cemented with divider road</name><styleUrl>#downArrowIcon</styleUrl><Point><coordinates>73.15772,18.96992,0 </coordinates></Point></Placemark><Placemark><name>secure shoulder road</name><styleUrl>#downArrowIcon</styleUrl><Point><coordinates>73.15655,18.97125,0 </coordinates></Point></Placemark><Placemark><name>railway, FlyOver</name><styleUrl>#downArrowIcon</styleUrl><Point><coordinates>73.15588,18.972,0 </coordinates></Point></Placemark><Placemark><name>left railwa station left</name><styleUrl>#downArrowIcon</styleUrl><Point><coordinates>73.15453,18.97352,0 </coordinates></Point></Placemark><Placemark><name>chikale Village</name><styleUrl>#downArrowIcon</styleUrl><Point><coordinates>73.15387,18.97425,0 </coordinates></Point></Placemark><Placemark><name>ascending road</name><styleUrl>#downArrowIcon</styleUrl><Point><coordinates>73.1503,18.97818,0 </coordinates></Point></Placemark><Placemark><name>underpass Bridge</name><styleUrl>#downArrowIcon</styleUrl><Point><coordinates>73.14733,18.98148,0 </coordinates></Point></Placemark><Placemark><name>Bridge Bridge</name><styleUrl>#downArrowIcon</styleUrl><Point><coordinates>73.1455,18.9835,0 </coordinates></Point></Placemark><Placemark><name>left curve road</name><styleUrl>#downArrowIcon</styleUrl><Point><coordinates>73.14255,18.98678,0 </coordinates></Point></Placemark><Placemark><name>bridge and right curve road</name><styleUrl>#downArrowIcon</styleUrl><Point><coordinates>73.13433,18.99487,0 </coordinates></Point></Placemark><Placemark><name>left curv</name><styleUrl>#downArrowIcon</styleUrl><Point><coordinates>73.13102,18.9984,0 </coordinates></Point></Placemark><Placemark><name>Fly Over FlyOver</name><styleUrl>#downArrowIcon</styleUrl><Point><coordinates>73.12635,19.004,0 </coordinates></Point></Placemark><Placemark><name>exit to  panvel and kolambali1 km ahed road</name><styleUrl>#downArrowIcon</styleUrl><Point><coordinates>73.12342,19.00688,0 </coordinates></Point></Placemark><Placemark><name>bridge and left curve Bridge</name><styleUrl>#downArrowIcon</styleUrl><Point><coordinates>73.12097,19.00932,0 </coordinates></Point></Placemark><Placemark><name>underpass bridge road</name><styleUrl>#downArrowIcon</styleUrl><Point><coordinates>73.11993,19.0103,0 </coordinates></Point></Placemark><Placemark><name>curve towaards panvwl thane and kolambooli left</name><styleUrl>#downArrowIcon</styleUrl><Point><coordinates>73.11663,19.01272,0 </coordinates></Point></Placemark><Placemark><name>descending road</name><styleUrl>#downArrowIcon</styleUrl><Point><coordinates>73.11253,19.01502,0 </coordinates></Point></Placemark><Placemark><name>right to truck terminal tjunctun</name><styleUrl>#downArrowIcon</styleUrl><Point><coordinates>73.11172,19.01542,0 </coordinates></Point></Placemark><Placemark><name>single without shoulder roaD</name><styleUrl>#downArrowIcon</styleUrl><Point><coordinates>73.1109,19.01577,0 </coordinates></Point></Placemark><Placemark><name>road road taking right turn toward taloja</name><styleUrl>#downArrowIcon</styleUrl><Point><coordinates>73.1067,19.01767,0 </coordinates></Point></Placemark></Folder></kml>